[
  {
    "issue": "Password reset",
    "additionBudgetInfo": "Urgent password reset required",
    "budget": 50.0,
    "budgetOption": "FIXED",
    "description": "User unable to access account due to forgotten password",
    "address": {
      "city": "New York",
      "country": "United States",
      "district": "Manhattan",
      "isoCountryCode": "US",
      "name": "123 Main St",
      "postalCode": "10001",
      "region": "NY",
      "street": "Main St",
      "streetNumber": "123",
      "subregion": "New York County",
      "timezone": "America/New_York"
    },
    "status": "OPEN",
    "latitude": "40.712776",
    "longitude": "-74.005974"
  },
  {
    "issue": "Network outage",
    "additionBudgetInfo": "Immediate attention required",
    "budget": 100.0,
    "budgetOption": "FIXED",
    "description": "Office network is down",
    "address": {
      "city": "San Francisco",
      "country": "United States",
      "district": "Financial District",
      "isoCountryCode": "US",
      "name": "456 Market St",
      "postalCode": "94111",
      "region": "CA",
      "street": "Market St",
      "streetNumber": "456",
      "subregion": "San Francisco County",
      "timezone": "America/Los_Angeles"
    },
    "status": "OPEN",
    "latitude": "37.774929",
    "longitude": "-122.419416"
  },
  {
    "issue": "Software installation",
    "additionBudgetInfo": "Standard priority",
    "budget": 75.0,
    "budgetOption": "FIXED",
    "description": "Need to install new software on office computers",
    "address": {
      "city": "Chicago",
      "country": "United States",
      "district": "Loop",
      "isoCountryCode": "US",
      "name": "789 W Adams St",
      "postalCode": "60661",
      "region": "IL",
      "street": "W Adams St",
      "streetNumber": "789",
      "subregion": "Cook County",
      "timezone": "America/Chicago"
    },
    "status": "OPEN",
    "latitude": "41.878113",
    "longitude": "-87.629799"
  },
  {
    "issue": "Hardware upgrade",
    "additionBudgetInfo": "High priority",
    "budget": 200.0,
    "budgetOption": "FIXED",
    "description": "Upgrade office computers with new hardware",
    "address": {
      "city": "Los Angeles",
      "country": "United States",
      "district": "Downtown",
      "isoCountryCode": "US",
      "name": "1010 Wilshire Blvd",
      "postalCode": "90017",
      "region": "CA",
      "street": "Wilshire Blvd",
      "streetNumber": "1010",
      "subregion": "Los Angeles County",
      "timezone": "America/Los_Angeles"
    },
    "status": "OPEN",
    "latitude": "34.052235",
    "longitude": "-118.243683"
  },
  {
    "issue": "Email setup",
    "additionBudgetInfo": "Low priority",
    "budget": 30.0,
    "budgetOption": "FIXED",
    "description": "Setup email accounts for new employees",
    "address": {
      "city": "Houston",
      "country": "United States",
      "district": "Downtown",
      "isoCountryCode": "US",
      "name": "1111 Main St",
      "postalCode": "77002",
      "region": "TX",
      "street": "Main St",
      "streetNumber": "1111",
      "subregion": "Harris County",
      "timezone": "America/Chicago"
    },
    "status": "OPEN",
    "latitude": "29.760427",
    "longitude": "-95.369804"
  },
  {
    "issue": "Printer setup",
    "additionBudgetInfo": "Medium priority",
    "budget": 40.0,
    "budgetOption": "FIXED",
    "description": "Install and configure new office printer",
    "address": {
      "city": "Phoenix",
      "country": "United States",
      "district": "Downtown",
      "isoCountryCode": "US",
      "name": "2222 E Washington St",
      "postalCode": "85034",
      "region": "AZ",
      "street": "E Washington St",
      "streetNumber": "2222",
      "subregion": "Maricopa County",
      "timezone": "America/Phoenix"
    },
    "status": "OPEN",
    "latitude": "33.448376",
    "longitude": "-112.074036"
  },
  {
    "issue": "Server maintenance",
    "additionBudgetInfo": "High priority",
    "budget": 150.0,
    "budgetOption": "FIXED",
    "description": "Perform routine maintenance on office servers",
    "address": {
      "city": "Philadelphia",
      "country": "United States",
      "district": "Center City",
      "isoCountryCode": "US",
      "name": "3333 Market St",
      "postalCode": "19104",
      "region": "PA",
      "street": "Market St",
      "streetNumber": "3333",
      "subregion": "Philadelphia County",
      "timezone": "America/New_York"
    },
    "status": "OPEN",
    "latitude": "39.952583",
    "longitude": "-75.165222"
  },
  {
    "issue": "Data backup",
    "additionBudgetInfo": "Medium priority",
    "budget": 60.0,
    "budgetOption": "FIXED",
    "description": "Backup office data to cloud storage",
    "address": {
      "city": "San Antonio",
      "country": "United States",
      "district": "Downtown",
      "isoCountryCode": "US",
      "name": "4444 Broadway St",
      "postalCode": "78209",
      "region": "TX",
      "street": "Broadway St",
      "streetNumber": "4444",
      "subregion": "Bexar County",
      "timezone": "America/Chicago"
    },
    "status": "OPEN",
    "latitude": "29.424122",
    "longitude": "-98.493629"
  },
  {
    "issue": "Security audit",
    "additionBudgetInfo": "High priority",
    "budget": 120.0,
    "budgetOption": "FIXED",
    "description": "Conduct a security audit of office network",
    "address": {
      "city": "San Diego",
      "country": "United States",
      "district": "Gaslamp Quarter",
      "isoCountryCode": "US",
      "name": "5555 Fifth Ave",
      "postalCode": "92101",
      "region": "CA",
      "street": "Fifth Ave",
      "streetNumber": "5555",
      "subregion": "San Diego County",
      "timezone": "America/Los_Angeles"
    },
    "status": "OPEN",
    "latitude": "32.715736",
    "longitude": "-117.161087"
  },
  {
    "issue": "Website update",
    "additionBudgetInfo": "Medium priority",
    "budget": 80.0,
    "budgetOption": "FIXED",
    "description": "Update company website with new content",
    "address": {
      "city": "Dallas",
      "country": "United States",
      "district": "Downtown",
      "isoCountryCode": "US",
      "name": "6666 Elm St",
      "postalCode": "75201",
      "region": "TX",
      "street": "Elm St",
      "streetNumber": "6666",
      "subregion": "Dallas County",
      "timezone": "America/Chicago"
    },
    "status": "OPEN",
    "latitude": "32.776664",
    "longitude": "-96.796988"
  },
  {
    "issue": "Database migration",
    "additionBudgetInfo": "High priority",
    "budget": 250.0,
    "budgetOption": "FIXED",
    "description": "Migrate office database to new server",
    "address": {
      "city": "San Jose",
      "country": "United States",
      "district": "Downtown",
      "isoCountryCode": "US",
      "name": "7777 Santa Clara St",
      "postalCode": "95113",
      "region": "CA",
      "street": "Santa Clara St",
      "streetNumber": "7777",
      "subregion": "Santa Clara County",
      "timezone": "America/Los_Angeles"
    },
    "status": "OPEN",
    "latitude": "37.338208",
    "longitude": "-121.886329"
  },
  {
    "issue": "VPN setup",
    "additionBudgetInfo": "Medium priority",
    "budget": 90.0,
    "budgetOption": "FIXED",
    "description": "Setup VPN for remote employees",
    "address": {
      "city": "Austin",
      "country": "United States",
      "district": "Downtown",
      "isoCountryCode": "US",
      "name": "8888 Congress Ave",
      "postalCode": "78701",
      "region": "TX",
      "street": "Congress Ave",
      "streetNumber": "8888",
      "subregion": "Travis County",
      "timezone": "America/Chicago"
    },
    "status": "OPEN",
    "latitude": "30.267153",
    "longitude": "-97.743057"
  },
  {
    "issue": "Firewall configuration",
    "additionBudgetInfo": "High priority",
    "budget": 110.0,
    "budgetOption": "FIXED",
    "description": "Configure firewall for office network",
    "address": {
      "city": "Jacksonville",
      "country": "United States",
      "district": "Downtown",
      "isoCountryCode": "US",
      "name": "9999 Bay St",
      "postalCode": "32202",
      "region": "FL",
      "street": "Bay St",
      "streetNumber": "9999",
      "subregion": "Duval County",
      "timezone": "America/New_York"
    },
    "status": "OPEN",
    "latitude": "30.332184",
    "longitude": "-81.655651"
  },
  {
    "issue": "Software update",
    "additionBudgetInfo": "Medium priority",
    "budget": 70.0,
    "budgetOption": "FIXED",
    "description": "Update software on office computers",
    "address": {
      "city": "Fort Worth",
      "country": "United States",
      "district": "Downtown",
      "isoCountryCode": "US",
      "name": "10101 Main St",
      "postalCode": "76102",
      "region": "TX",
      "street": "Main St",
      "streetNumber": "10101",
      "subregion": "Tarrant County",
      "timezone": "America/Chicago"
    },
    "status": "OPEN",
    "latitude": "32.755488",
    "longitude": "-97.330766"
  },
  {
    "issue": "Network expansion",
    "additionBudgetInfo": "High priority",
    "budget": 180.0,
    "budgetOption": "FIXED",
    "description": "Expand office network to new floor",
    "address": {
      "city": "Columbus",
      "country": "United States",
      "district": "Downtown",
      "isoCountryCode": "US",
      "name": "11111 High St",
      "postalCode": "43215",
      "region": "OH",
      "street": "High St",
      "streetNumber": "11111",
      "subregion": "Franklin County",
      "timezone": "America/New_York"
    },
    "status": "OPEN",
    "latitude": "39.961176",
    "longitude": "-82.998794"
  },
  {
    "issue": "Cloud service setup",
    "additionBudgetInfo": "Medium priority",
    "budget": 130.0,
    "budgetOption": "FIXED",
    "description": "Setup cloud services for office",
    "address": {
      "city": "Charlotte",
      "country": "United States",
      "district": "Uptown",
      "isoCountryCode": "US",
      "name": "12121 Tryon St",
      "postalCode": "28202",
      "region": "NC",
      "street": "Tryon St",
      "streetNumber": "12121",
      "subregion": "Mecklenburg County",
      "timezone": "America/New_York"
    },
    "status": "OPEN",
    "latitude": "35.227085",
    "longitude": "-80.843124"
  },
  {
    "issue": "Mobile device management",
    "additionBudgetInfo": "Medium priority",
    "budget": 95.0,
    "budgetOption": "FIXED",
    "description": "Implement mobile device management for office",
    "address": {
      "city": "Indianapolis",
      "country": "United States",
      "district": "Downtown",
      "isoCountryCode": "US",
      "name": "13131 Meridian St",
      "postalCode": "46204",
      "region": "IN",
      "street": "Meridian St",
      "streetNumber": "13131",
      "subregion": "Marion County",
      "timezone": "America/Indiana/Indianapolis"
    },
    "status": "OPEN",
    "latitude": "39.768403",
    "longitude": "-86.158068"
  },
  {
    "issue": "IT support",
    "additionBudgetInfo": "Low priority",
    "budget": 50.0,
    "budgetOption": "FIXED",
    "description": "Provide general IT support for office",
    "address": {
      "city": "Seattle",
      "country": "United States",
      "district": "Downtown",
      "isoCountryCode": "US",
      "name": "14141 Pike St",
      "postalCode": "98101",
      "region": "WA",
      "street": "Pike St",
      "streetNumber": "14141",
      "subregion": "King County",
      "timezone": "America/Los_Angeles"
    },
    "status": "OPEN",
    "latitude": "47.606209",
    "longitude": "-122.332071"
  },
  {
    "issue": "Office relocation",
    "additionBudgetInfo": "High priority",
    "budget": 300.0,
    "budgetOption": "FIXED",
    "description": "Relocate office to new building",
    "address": {
      "city": "Denver",
      "country": "United States",
      "district": "Downtown",
      "isoCountryCode": "US",
      "name": "15151 Broadway",
      "postalCode": "80202",
      "region": "CO",
      "street": "Broadway",
      "streetNumber": "15151",
      "subregion": "Denver County",
      "timezone": "America/Denver"
    },
    "status": "OPEN",
    "latitude": "39.739236",
    "longitude": "-104.990251"
  },
  {
    "issue": "Remote access setup",
    "additionBudgetInfo": "Medium priority",
    "budget": 85.0,
    "budgetOption": "FIXED",
    "description": "Setup remote access for employees",
    "address": {
      "city": "Washington",
      "country": "United States",
      "district": "Downtown",
      "isoCountryCode": "US",
      "name": "16161 Pennsylvania Ave",
      "postalCode": "20006",
      "region": "DC",
      "street": "Pennsylvania Ave",
      "streetNumber": "16161",
      "subregion": "District of Columbia",
      "timezone": "America/New_York"
    },
    "status": "OPEN",
    "latitude": "38.907192",
    "longitude": "-77.036871"
  },
  {
    "issue": "Office network setup",
    "additionBudgetInfo": "High priority",
    "budget": 220.0,
    "budgetOption": "FIXED",
    "description": "Setup network for new office",
    "address": {
      "city": "Boston",
      "country": "United States",
      "district": "Downtown",
      "isoCountryCode": "US",
      "name": "17171 Beacon St",
      "postalCode": "02108",
      "region": "MA",
      "street": "Beacon St",
      "streetNumber": "17171",
      "subregion": "Suffolk County",
      "timezone": "America/New_York"
    },
    "status": "OPEN",
    "latitude": "42.360082",
    "longitude": "-71.058880"
  },
  {
    "issue": "Software training",
    "additionBudgetInfo": "Medium priority",
    "budget": 65.0,
    "budgetOption": "FIXED",
    "description": "Provide software training for employees",
    "address": {
      "city": "El Paso",
      "country": "United States",
      "district": "Downtown",
      "isoCountryCode": "US",
      "name": "18181 Texas Ave",
      "postalCode": "79901",
      "region": "TX",
      "street": "Texas Ave",
      "streetNumber": "18181",
      "subregion": "El Paso County",
      "timezone": "America/Denver"
    },
    "status": "OPEN",
    "latitude": "31.761878",
    "longitude": "-106.485022"
  }
]
